{
  "type": "FeatureCollection",
  "features": [

    {
      "type": "Feature",
      "properties": {
        "direction": "outbound",
        "color": "#000000"
      },
      "geometry": {
        "type": "LineString",
        "coordinates": [[-73.733755,45.503347],[-73.733569,45.503223],[-73.732408,45.502558],
                        [-73.732408,45.502557],[-73.731873,45.50225],[-73.732578,45.501831],
                        [-73.733854,45.501054],[-73.734466,45.500639],[-73.73448,45.500624],
                        [-73.73447,45.500609],[-73.733985,45.5003],[-73.732038,45.499054],
                        [-73.730457,45.498044],[-73.730275,45.497927],[-73.728543,45.496814],
                        [-73.728068,45.496536],[-73.72744,45.496186],[-73.727173,45.496019],
                        [-73.726951,45.495881],[-73.726641,45.495727],[-73.726228,45.495565],
                        [-73.725918,45.495475],[-73.725665,45.495413],[-73.725448,45.495333],
                        [-73.725142,45.495208],[-73.72445,45.494887],[-73.724382,45.494856],
                        [-73.724383,45.494856],[-73.724232,45.494787],[-73.724103,45.494732],
                        [-73.72328,45.494427],[-73.722636,45.494275],[-73.722217,45.494211],
                        [-73.722043,45.494186],[-73.720429,45.494027],[-73.719804,45.493961],
                        [-73.719597,45.493939],[-73.718252,45.493815],[-73.717799,45.493807],
                        [-73.717409,45.493844],[-73.717175,45.493908],[-73.716967,45.493973],
                        [-73.716707,45.494102],[-73.716501,45.494239],[-73.715354,45.495152],
                        [-73.715113,45.495345],[-73.710393,45.492381],[-73.710316,45.492327],
                        [-73.710265,45.492291],[-73.710238,45.492279],[-73.710218,45.492287],
                        [-73.708628,45.493562],[-73.70851,45.493657],[-73.706347,45.495297],
                        [-73.706034,45.495533],[-73.704094,45.497147],[-73.702008,45.498785],
                        [-73.701785,45.49896],[-73.7013,45.49933],[-73.701095,45.499493],
                        [-73.699786,45.500566],[-73.699577,45.500738],[-73.69787,45.502107],
                        [-73.697689,45.502253],[-73.696617,45.503126],[-73.69469,45.504614],
                        [-73.694163,45.505031],[-73.694164,45.505031],[-73.692669,45.506212],
                        [-73.692547,45.50631],[-73.692406,45.506409],[-73.691703,45.506969],
                        [-73.690121,45.508276],[-73.689968,45.508403],[-73.689961,45.508409],
                        [-73.689959,45.508413],[-73.689922,45.508517],[-73.689381,45.50897],
                        [-73.688837,45.509373],[-73.688709,45.509427],[-73.688409,45.509662],
                        [-73.688015,45.509971],[-73.687913,45.510052],[-73.686734,45.510977],
                        [-73.686534,45.511134],[-73.685704,45.511793],[-73.685411,45.512027],
                        [-73.685067,45.512306],[-73.684684,45.512595],[-73.684578,45.51268],
                        [-73.684428,45.512803],[-73.683561,45.513505],[-73.68305,45.513893],
                        [-73.682871,45.514039],[-73.68273,45.514155],[-73.68264,45.514227],
                        [-73.681951,45.514759],[-73.681587,45.515036],[-73.681467,45.515127],
                        [-73.680945,45.515469],[-73.680447,45.515813],[-73.680011,45.516128],
                        [-73.679896,45.516211],[-73.679282,45.516698],[-73.677188,45.518339],
                        [-73.676538,45.518852],[-73.675669,45.519538],[-73.67404,45.520791],
                        [-73.674042,45.520791],[-73.673827,45.520956],[-73.673748,45.521068],
                        [-73.673379,45.521572],[-73.673033,45.522122],[-73.672345,45.523149],
                        [-73.672241,45.523307],[-73.671963,45.523726],[-73.67153,45.524419],
                        [-73.671275,45.524843],[-73.67094,45.525377],[-73.670867,45.525491],
                        [-73.670778,45.525626],[-73.669876,45.527074],[-73.669695,45.527364],
                        [-73.6693,45.527995],[-73.669046,45.528418],[-73.66888,45.52868],
                        [-73.668816,45.528797],[-73.668676,45.529041],[-73.668373,45.529549],
                        [-73.668014,45.530147],[-73.666688,45.532255],[-73.666101,45.533239],
                        [-73.665982,45.53357],[-73.665909,45.533773],[-73.665466,45.53555],
                        [-73.665465,45.535624],[-73.665441,45.53571],[-73.665383,45.536013],
                        [-73.66529,45.536494],[-73.664721,45.53904],[-73.664607,45.53939],
                        [-73.664355,45.539925],[-73.664215,45.540132],[-73.663909,45.540656],
                        [-73.663905,45.540666],[-73.663807,45.540881],[-73.663399,45.541556],
                        [-73.663055,45.542141],[-73.662789,45.542624],[-73.662739,45.542713],
                        [-73.662206,45.543107],[-73.6621,45.543201],[-73.661728,45.543755],
                        [-73.661576,45.544133],[-73.661453,45.544311],[-73.661452,45.544311],
                        [-73.661359,45.544446],[-73.66118,45.544781],[-73.660913,45.545259],
                        [-73.660836,45.545412],[-73.660486,45.545983],[-73.660429,45.546077],
                        [-73.659809,45.546953],[-73.659696,45.547015],[-73.659589,45.547119],
                        [-73.659389,45.547436],[-73.65918,45.547769],[-73.659103,45.547877],
                        [-73.658727,45.548459],[-73.658726,45.548459],[-73.658633,45.548603],
                        [-73.657678,45.549349],[-73.657526,45.549456],[-73.656708,45.550061],
                        [-73.65618,45.550489],[-73.656001,45.550633],[-73.655946,45.550726],
                        [-73.655897,45.550805],[-73.65568,45.551067],[-73.655589,45.551223],
                        [-73.655508,45.551396],[-73.655448,45.551522],[-73.655397,45.55166],
                        [-73.655358,45.551871],[-73.655396,45.552129],[-73.655323,45.552276],
                        [-73.655081,45.552689],[-73.654957,45.552888],[-73.654941,45.552914],
                        [-73.654877,45.553023],[-73.654813,45.55314],[-73.654444,45.553788],
                        [-73.654084,45.554404],[-73.654023,45.554509],[-73.653602,45.555229],
                        [-73.65322,45.555923],[-73.652888,45.556482],[-73.652824,45.556589],
                        [-73.652429,45.557255],[-73.652085,45.557841],[-73.652021,45.557949],
                        [-73.651639,45.558623],[-73.651302,45.559154],[-73.651192,45.559326],
                        [-73.650759,45.560047],[-73.650363,45.560731],[-73.650042,45.561298],
                        [-73.649981,45.561407],[-73.648729,45.56357],[-73.648668,45.563676],
                        [-73.647979,45.564928],[-73.647649,45.565496],[-73.647571,45.56563],
                        [-73.647506,45.565748],[-73.647187,45.566351],[-73.647023,45.566657],
                        [-73.646795,45.566943],[-73.646719,45.56704],[-73.646259,45.56759],
                        [-73.645799,45.568139],[-73.645399,45.568592],[-73.645314,45.568689],
                        [-73.644855,45.569219],[-73.644573,45.569518],[-73.644337,45.569833],
                        [-73.644214,45.569996],[-73.644189,45.570033],[-73.64414,45.570084],
                        [-73.643705,45.570608],[-73.643206,45.571184],[-73.642784,45.571683],
                        [-73.642695,45.571788],[-73.642184,45.572391],[-73.641685,45.572957],
                        [-73.641597,45.573058],[-73.641047,45.573733],[-73.640551,45.574322],
                        [-73.640447,45.574445],[-73.639872,45.57512],[-73.639442,45.575636],
                        [-73.639361,45.575733],[-73.63894,45.576255],[-73.638537,45.576728],
                        [-73.637877,45.576459]]
      }
    },

    {
      "type": "Feature",
      "properties": {
        "direction": "inbound",
        "color": "#6f6f6f"
      },
      "geometry": {
        "type": "LineString",
        "coordinates": [[-73.637877,45.576459],[-73.636481,45.575889],[-73.636302,45.575809],
                        [-73.63566,45.575533],[-73.63598,45.57515],[-73.636063,45.575051],
                        [-73.636497,45.574557],[-73.637021,45.573952],[-73.637508,45.57335],
                        [-73.637596,45.573241],[-73.638132,45.572601],[-73.638614,45.572016],
                        [-73.638733,45.571872],[-73.639295,45.571196],[-73.639691,45.570751],
                        [-73.639692,45.570751],[-73.639819,45.570609],[-73.640433,45.570857],
                        [-73.640664,45.570947],[-73.642715,45.571817],[-73.642744,45.571826],
                        [-73.642761,45.571815],[-73.643195,45.571302],[-73.643272,45.571212],
                        [-73.64377,45.570635],[-73.644112,45.570224],[-73.644204,45.570113],
                        [-73.644282,45.570022],[-73.644638,45.569545],[-73.644919,45.569248],
                        [-73.645296,45.568812],[-73.645379,45.568717],[-73.645865,45.568167],
                        [-73.646324,45.567618],[-73.646701,45.567168],[-73.646786,45.567067],
                        [-73.647093,45.566678],[-73.64726,45.56637],[-73.647506,45.565904],
                        [-73.647579,45.565767],[-73.647643,45.56565],[-73.64805,45.564947],
                        [-73.648607,45.563935],[-73.648738,45.563696],[-73.64999,45.561534],
                        [-73.650051,45.561427],[-73.650434,45.560752],[-73.650829,45.560068],
                        [-73.651184,45.559479],[-73.651263,45.559347],[-73.651709,45.558645],
                        [-73.652033,45.558074],[-73.652092,45.557969],[-73.6525,45.557276],
                        [-73.652834,45.556712],[-73.652895,45.55661],[-73.65329,45.555942],
                        [-73.653673,45.555249],[-73.654027,45.554642],[-73.654093,45.554529],
                        [-73.654514,45.553809],[-73.654856,45.553212],[-73.654885,45.55316],
                        [-73.654949,45.553042],[-73.655011,45.552935],[-73.655151,45.55271],
                        [-73.655395,45.552295],[-73.655471,45.552141],[-73.655473,45.552137],
                        [-73.655473,45.552129],[-73.655433,45.551872],[-73.655467,45.551688],
                        [-73.655471,45.551668],[-73.655521,45.551537],[-73.655661,45.551242],
                        [-73.655748,45.551091],[-73.655956,45.550841],[-73.65609,45.550805],
                        [-73.656213,45.550738],[-73.656427,45.550565],[-73.656944,45.55015],
                        [-73.657748,45.549548],[-73.657914,45.549439],[-73.658747,45.54878],
                        [-73.658865,45.548686],[-73.659326,45.547945],[-73.65939,45.547845],
                        [-73.659619,45.547494],[-73.659786,45.547213],[-73.659821,45.547122],
                        [-73.659874,45.546981],[-73.660499,45.546099],[-73.66085,45.545525],
                        [-73.660908,45.545431],[-73.660985,45.545278],[-73.661252,45.5448],
                        [-73.661429,45.544468],[-73.661555,45.544285],[-73.661645,45.544155],
                        [-73.661946,45.543845],[-73.662263,45.54363],[-73.662269,45.543625],
                        [-73.662272,45.543623],[-73.662438,45.543379],[-73.662476,45.543315],
                        [-73.662707,45.542936],[-73.662754,45.542844],[-73.662809,45.542737],
                        [-73.663126,45.542161],[-73.663419,45.541664],[-73.66347,45.541577],
                        [-73.663876,45.540902],[-73.664132,45.540634],[-73.664266,45.540435],
                        [-73.664426,45.540198],[-73.664592,45.5399],[-73.664708,45.539692],
                        [-73.664823,45.539429],[-73.66495,45.539023],[-73.665279,45.537653],
                        [-73.665545,45.536519],[-73.665693,45.535875],[-73.665722,45.535746],
                        [-73.665773,45.535592],[-73.665842,45.535192],[-73.665841,45.535192],
                        [-73.665936,45.534638],[-73.666122,45.533914],[-73.666151,45.533802],
                        [-73.666215,45.533605],[-73.666352,45.533284],[-73.667575,45.531223],
                        [-73.66825,45.530088],[-73.668658,45.529413],[-73.669002,45.528845],
                        [-73.669066,45.528737],[-73.669486,45.528061],[-73.669728,45.527647],
                        [-73.66978,45.52757],[-73.669881,45.527423],[-73.670912,45.525787],
                        [-73.670977,45.525684],[-73.671066,45.525558],[-73.671525,45.524792],
                        [-73.671728,45.524441],[-73.672083,45.52391],[-73.672162,45.523793],
                        [-73.673206,45.522208],[-73.673563,45.521658],[-73.673778,45.521345],
                        [-73.67393,45.521174],[-73.673993,45.521104],[-73.674055,45.521052],
                        [-73.674432,45.520729],[-73.674541,45.520637],[-73.675685,45.519749],
                        [-73.675829,45.519637],[-73.677263,45.518541],[-73.677374,45.518456],
                        [-73.679455,45.516824],[-73.679978,45.516426],[-73.680094,45.516336],
                        [-73.680477,45.51603],[-73.680692,45.51585],[-73.6814,45.515411],
                        [-73.681401,45.515412],[-73.681638,45.515265],[-73.682814,45.514343],
                        [-73.682913,45.514264],[-73.683004,45.514209],[-73.683345,45.513926],
                        [-73.683733,45.513604],[-73.684588,45.512919],[-73.684869,45.512711],
                        [-73.685597,45.512125],[-73.68583,45.51194],[-73.686694,45.511251],
                        [-73.687259,45.510806],[-73.687792,45.510385],[-73.688073,45.51016],
                        [-73.688175,45.510078],[-73.688532,45.509799],[-73.688826,45.509564],
                        [-73.688831,45.50956],[-73.688834,45.509555],[-73.688844,45.50953],
                        [-73.688895,45.509408],[-73.689438,45.509005],[-73.689903,45.508616],
                        [-73.68998,45.508552],[-73.690113,45.508518],[-73.690119,45.508515],
                        [-73.690128,45.508509],[-73.691889,45.507085],[-73.692458,45.506649],
                        [-73.692642,45.506508],[-73.692744,45.506426],[-73.694876,45.504722],
                        [-73.6952,45.504471],[-73.695201,45.504472],[-73.696634,45.503365],
                        [-73.696633,45.503364],[-73.69679,45.503243],[-73.697757,45.502456],
                        [-73.697875,45.502359],[-73.699629,45.500951],[-73.69975,45.500853],
                        [-73.701306,45.49961],[-73.701498,45.499456],[-73.701983,45.499087],
                        [-73.702532,45.498653],[-73.70428,45.497264],[-73.706153,45.495761],
                        [-73.706257,45.495677],[-73.708528,45.493921],[-73.70872,45.493774],
                        [-73.710271,45.492518],[-73.710271,45.492519],[-73.710387,45.492425],
                        [-73.714759,45.495171],[-73.715104,45.495387],[-73.715177,45.495421],
                        [-73.715214,45.495456],[-73.715236,45.495468],[-73.715259,45.495459],
                        [-73.716648,45.494342],[-73.716824,45.494235],[-73.717038,45.49413],
                        [-73.717238,45.494057],[-73.717452,45.494013],[-73.717751,45.493969],
                        [-73.718171,45.493967],[-73.719325,45.494085],[-73.719563,45.494109],
                        [-73.720369,45.494179],[-73.721784,45.494324],[-73.722007,45.494347],
                        [-73.722695,45.494454],[-73.72337,45.49463],[-73.723728,45.494766],
                        [-73.724008,45.494871],[-73.724148,45.494924],[-73.724734,45.495228],
                        [-73.726452,45.496321],[-73.726852,45.496578],[-73.729437,45.498239],
                        [-73.72962,45.498358],[-73.731541,45.499594],[-73.7336,45.50092],
                        [-73.733816,45.501058],[-73.736099,45.502502],[-73.736837,45.502983],
                        [-73.73543,45.504049],[-73.735273,45.504169],[-73.735274,45.504169],
                        [-73.735142,45.50427],[-73.733755,45.503347]]
      }
    },

    {
      "type": "Feature",
      "properties": {
        "name": "Sauvé / Waverly (––)",
        "direction": "inbound"
      },
      "geometry": {
        "type": "Point",
        "coordinates": [
          -73.661175,
          45.545017
        ]
      }
    },
    {
      "type": "Feature",
      "properties": {
        "name": "Sauvé / Saint-Urbain (––)",
        "direction": "outbound"
      },
      "geometry": {
        "type": "Point",
        "coordinates": [
          -73.660917,
          45.545147
        ]
      }
    },
    {
      "type": "Feature",
      "properties": {
        "name": "Centre de transport St-Laurent (Guénette / Cousens (55887)",
        "direction": "outbound"
      },
      "geometry": {
        "type": "Point",
        "coordinates": [
          -73.73376,
          45.503345
        ]
      }
    },
    {
      "type": "Feature",
      "properties": {
        "name": "Thimens / Bois-Franc (55864)",
        "direction": "outbound"
      },
      "geometry": {
        "type": "Point",
        "coordinates": [
          -73.734003,
          45.500286
        ]
      }
    },
    {
      "type": "Feature",
      "properties": {
        "name": "Thimens / Dobrin (55870)",
        "direction": "outbound"
      },
      "geometry": {
        "type": "Point",
        "coordinates": [
          -73.730474,
          45.49803
        ]
      }
    },
    {
      "type": "Feature",
      "properties": {
        "name": "Thimens / No 4900 (55872)",
        "direction": "outbound"
      },
      "geometry": {
        "type": "Point",
        "coordinates": [
          -73.727189,
          45.496007
        ]
      }
    },
    {
      "type": "Feature",
      "properties": {
        "name": "Thimens / Poirier (55871)",
        "direction": "outbound"
      },
      "geometry": {
        "type": "Point",
        "coordinates": [
          -73.724421,
          45.494814
        ]
      }
    },
    {
      "type": "Feature",
      "properties": {
        "name": "Thimens / Pomba (55800)",
        "direction": "outbound"
      },
      "geometry": {
        "type": "Point",
        "coordinates": [
          -73.719813,
          45.493922
        ]
      }
    },
    {
      "type": "Feature",
      "properties": {
        "name": "Thimens / Bégin (55441)",
        "direction": "outbound"
      },
      "geometry": {
        "type": "Point",
        "coordinates": [
          -73.715287,
          45.495112
        ]
      }
    },
    {
      "type": "Feature",
      "properties": {
        "name": "Côte-Vertu / Bégin (55955)",
        "direction": "outbound"
      },
      "geometry": {
        "type": "Point",
        "coordinates": [
          -73.709537,
          45.492735
        ]
      }
    },
    {
      "type": "Feature",
      "properties": {
        "name": "Côte-Vertu / Beaulac (55466)",
        "direction": "outbound"
      },
      "geometry": {
        "type": "Point",
        "coordinates": [
          -73.706324,
          45.495282
        ]
      }
    },
    {
      "type": "Feature",
      "properties": {
        "name": "Côte-Vertu / Cavendish (55487)",
        "direction": "outbound"
      },
      "geometry": {
        "type": "Point",
        "coordinates": [
          -73.701953,
          45.498749
        ]
      }
    },
    {
      "type": "Feature",
      "properties": {
        "name": "Côte-Vertu / Hocquart (55503)",
        "direction": "outbound"
      },
      "geometry": {
        "type": "Point",
        "coordinates": [
          -73.699731,
          45.500533
        ]
      }
    },
    {
      "type": "Feature",
      "properties": {
        "name": "Côte-Vertu / Hills (55516)",
        "direction": "outbound"
      },
      "geometry": {
        "type": "Point",
        "coordinates": [
          -73.697817,
          45.502075
        ]
      }
    },
    {
      "type": "Feature",
      "properties": {
        "name": "Côte-Vertu / No 2308 (55898)",
        "direction": "outbound"
      },
      "geometry": {
        "type": "Point",
        "coordinates": [
          -73.694125,
          45.505007
        ]
      }
    },
    {
      "type": "Feature",
      "properties": {
        "name": "Côte-Vertu / Alexis-Nihon (55556)",
        "direction": "outbound"
      },
      "geometry": {
        "type": "Point",
        "coordinates": [
          -73.69263,
          45.506188
        ]
      }
    },
    {
      "type": "Feature",
      "properties": {
        "name": "Côte-Vertu / Marlatt (55581)",
        "direction": "outbound"
      },
      "geometry": {
        "type": "Point",
        "coordinates": [
          -73.690094,
          45.50826
        ]
      }
    },
    {
      "type": "Feature",
      "properties": {
        "name": "Côte-Vertu / Leduc (55604)",
        "direction": "outbound"
      },
      "geometry": {
        "type": "Point",
        "coordinates": [
          -73.686698,
          45.510954
        ]
      }
    },
    {
      "type": "Feature",
      "properties": {
        "name": "Station Côte-Vertu (Côte-Vertu / Décarie) (55639)",
        "direction": "outbound"
      },
      "geometry": {
        "type": "Point",
        "coordinates": [
          -73.682832,
          45.514015
        ]
      }
    },
    {
      "type": "Feature",
      "properties": {
        "name": "Côte-Vertu / Sainte-Croix (55662)",
        "direction": "outbound"
      },
      "geometry": {
        "type": "Point",
        "coordinates": [
          -73.679956,
          45.51609
        ]
      }
    },
    {
      "type": "Feature",
      "properties": {
        "name": "Côte-Vertu / Dutrisac (55688)",
        "direction": "outbound"
      },
      "geometry": {
        "type": "Point",
        "coordinates": [
          -73.676493,
          45.518822
        ]
      }
    },
    {
      "type": "Feature",
      "properties": {
        "name": "Côte-Vertu / Montpellier (55712)",
        "direction": "outbound"
      },
      "geometry": {
        "type": "Point",
        "coordinates": [
          -73.674002,
          45.520766
        ]
      }
    },
    {
      "type": "Feature",
      "properties": {
        "name": "Côte-Vertu / Muir (55720)",
        "direction": "outbound"
      },
      "geometry": {
        "type": "Point",
        "coordinates": [
          -73.672186,
          45.523289
        ]
      }
    },
    {
      "type": "Feature",
      "properties": {
        "name": "Côte-Vertu / Grimard (55734)",
        "direction": "outbound"
      },
      "geometry": {
        "type": "Point",
        "coordinates": [
          -73.669839,
          45.527062
        ]
      }
    },
    {
      "type": "Feature",
      "properties": {
        "name": "Côte-Vertu / No 100 (55865)",
        "direction": "outbound"
      },
      "geometry": {
        "type": "Point",
        "coordinates": [
          -73.668314,
          45.529531
        ]
      }
    },
    {
      "type": "Feature",
      "properties": {
        "name": "Sauvé / Elzéar-Soucy (53682)",
        "direction": "outbound"
      },
      "geometry": {
        "type": "Point",
        "coordinates": [
          -73.665977,
          45.533569
        ]
      }
    },
    {
      "type": "Feature",
      "properties": {
        "name": "Sauvé / de l'Acadie (50328)",
        "direction": "outbound"
      },
      "geometry": {
        "type": "Point",
        "coordinates": [
          -73.665364,
          45.536011
        ]
      }
    },
    {
      "type": "Feature",
      "properties": {
        "name": "Sauvé / Meilleur (50342)",
        "direction": "outbound"
      },
      "geometry": {
        "type": "Point",
        "coordinates": [
          -73.663885,
          45.540662
        ]
      }
    },
    {
      "type": "Feature",
      "properties": {
        "name": "Sauvé / Tolhurst (50354)",
        "direction": "outbound"
      },
      "geometry": {
        "type": "Point",
        "coordinates": [
          -73.662738,
          45.542611
        ]
      }
    },
    {
      "type": "Feature",
      "properties": {
        "name": "Sauvé / Grande Allée (50393)",
        "direction": "outbound"
      },
      "geometry": {
        "type": "Point",
        "coordinates": [
          -73.659353,
          45.547425
        ]
      }
    },
    {
      "type": "Feature",
      "properties": {
        "name": "Station Sauvé (Édicule Sud) (50438)",
        "direction": "outbound"
      },
      "geometry": {
        "type": "Point",
        "coordinates": [
          -73.656161,
          45.550476
        ]
      }
    },
    {
      "type": "Feature",
      "properties": {
        "name": "Sauvé / Saint-Hubert (50469)",
        "direction": "outbound"
      },
      "geometry": {
        "type": "Point",
        "coordinates": [
          -73.654063,
          45.554398
        ]
      }
    },
    {
      "type": "Feature",
      "properties": {
        "name": "Sauvé / Georges-Baril (50488)",
        "direction": "outbound"
      },
      "geometry": {
        "type": "Point",
        "coordinates": [
          -73.652841,
          45.556468
        ]
      }
    },
    {
      "type": "Feature",
      "properties": {
        "name": "Sauvé / Christophe-Colomb (50505)",
        "direction": "outbound"
      },
      "geometry": {
        "type": "Point",
        "coordinates": [
          -73.651248,
          45.559138
        ]
      }
    },
    {
      "type": "Feature",
      "properties": {
        "name": "Sauvé / Curotte (50528)",
        "direction": "outbound"
      },
      "geometry": {
        "type": "Point",
        "coordinates": [
          -73.65,
          45.561286
        ]
      }
    },
    {
      "type": "Feature",
      "properties": {
        "name": "Sauvé / Garnier (50543)",
        "direction": "outbound"
      },
      "geometry": {
        "type": "Point",
        "coordinates": [
          -73.648694,
          45.56356
        ]
      }
    },
    {
      "type": "Feature",
      "properties": {
        "name": "Sauvé / Papineau (50558)",
        "direction": "outbound"
      },
      "geometry": {
        "type": "Point",
        "coordinates": [
          -73.647623,
          45.565489
        ]
      }
    },
    {
      "type": "Feature",
      "properties": {
        "name": "Sauvé / De Lorimier (50595)",
        "direction": "outbound"
      },
      "geometry": {
        "type": "Point",
        "coordinates": [
          -73.645375,
          45.568582
        ]
      }
    },
    {
      "type": "Feature",
      "properties": {
        "name": "Sauvé / Parthenais (50617)",
        "direction": "outbound"
      },
      "geometry": {
        "type": "Point",
        "coordinates": [
          -73.644319,
          45.569828
        ]
      }
    },
    {
      "type": "Feature",
      "properties": {
        "name": "Sauvé / de Lille (50634)",
        "direction": "outbound"
      },
      "geometry": {
        "type": "Point",
        "coordinates": [
          -73.642753,
          45.571671
        ]
      }
    },
    {
      "type": "Feature",
      "properties": {
        "name": "Sauvé / D'Iberville (50667)",
        "direction": "outbound"
      },
      "geometry": {
        "type": "Point",
        "coordinates": [
          -73.641661,
          45.572946
        ]
      }
    },
    {
      "type": "Feature",
      "properties": {
        "name": "Sauvé / Larose (50719)",
        "direction": "outbound"
      },
      "geometry": {
        "type": "Point",
        "coordinates": [
          -73.639417,
          45.575626
        ]
      }
    },
    {
      "type": "Feature",
      "properties": {
        "name": "Saint-Michel / Sauvé (54216)",
        "direction": "outbound"
      },
      "geometry": {
        "type": "Point",
        "coordinates": [
          -73.637892,
          45.576441
        ]
      }
    },
    {
      "type": "Feature",
      "properties": {
        "name": "Saint-Michel / Sauvé (54216)",
        "direction": "inbound"
      },
      "geometry": {
        "type": "Point",
        "coordinates": [
          -73.637892,
          45.576441
        ]
      }
    },
    {
      "type": "Feature",
      "properties": {
        "name": "Charland / J.-J.-Gagnier (50802)",
        "direction": "inbound"
      },
      "geometry": {
        "type": "Point",
        "coordinates": [
          -73.636025,
          45.575168
        ]
      }
    },
    {
      "type": "Feature",
      "properties": {
        "name": "Charland / Sackville (50754)",
        "direction": "inbound"
      },
      "geometry": {
        "type": "Point",
        "coordinates": [
          -73.63754,
          45.573362
        ]
      }
    },
    {
      "type": "Feature",
      "properties": {
        "name": "Charland / de Lille (50704)",
        "direction": "inbound"
      },
      "geometry": {
        "type": "Point",
        "coordinates": [
          -73.639718,
          45.570763
        ]
      }
    },
    {
      "type": "Feature",
      "properties": {
        "name": "Sauvé / Rancourt (50625)",
        "direction": "inbound"
      },
      "geometry": {
        "type": "Point",
        "coordinates": [
          -73.643221,
          45.571313
        ]
      }
    },
    {
      "type": "Feature",
      "properties": {
        "name": "Sauvé / Parthenais (50616)",
        "direction": "inbound"
      },
      "geometry": {
        "type": "Point",
        "coordinates": [
          -73.644151,
          45.57024
        ]
      }
    },
    {
      "type": "Feature",
      "properties": {
        "name": "Sauvé / De Lorimier (50594)",
        "direction": "inbound"
      },
      "geometry": {
        "type": "Point",
        "coordinates": [
          -73.645333,
          45.568828
        ]
      }
    },
    {
      "type": "Feature",
      "properties": {
        "name": "Sauvé / Papineau (61707)",
        "direction": "inbound"
      },
      "geometry": {
        "type": "Point",
        "coordinates": [
          -73.647459,
          45.566048
        ]
      }
    },
    {
      "type": "Feature",
      "properties": {
        "name": "Sauvé / Garnier (50542)",
        "direction": "inbound"
      },
      "geometry": {
        "type": "Point",
        "coordinates": [
          -73.648636,
          45.563942
        ]
      }
    },
    {
      "type": "Feature",
      "properties": {
        "name": "Sauvé / Curotte (50527)",
        "direction": "inbound"
      },
      "geometry": {
        "type": "Point",
        "coordinates": [
          -73.650002,
          45.561537
        ]
      }
    },
    {
      "type": "Feature",
      "properties": {
        "name": "Sauvé / Christophe-Colomb (50503)",
        "direction": "inbound"
      },
      "geometry": {
        "type": "Point",
        "coordinates": [
          -73.651208,
          45.559486
        ]
      }
    },
    {
      "type": "Feature",
      "properties": {
        "name": "Sauvé / Georges-Baril (50487)",
        "direction": "inbound"
      },
      "geometry": {
        "type": "Point",
        "coordinates": [
          -73.652861,
          45.55672
        ]
      }
    },
    {
      "type": "Feature",
      "properties": {
        "name": "Sauvé / Saint-Hubert (50467)",
        "direction": "inbound"
      },
      "geometry": {
        "type": "Point",
        "coordinates": [
          -73.654081,
          45.554657
        ]
      }
    },
    {
      "type": "Feature",
      "properties": {
        "name": "Station Sauvé (Édicule Nord) (50439)",
        "direction": "inbound"
      },
      "geometry": {
        "type": "Point",
        "coordinates": [
          -73.656445,
          45.550577
        ]
      }
    },
    {
      "type": "Feature",
      "properties": {
        "name": "Sauvé / Saint-Laurent (50391)",
        "direction": "inbound"
      },
      "geometry": {
        "type": "Point",
        "coordinates": [
          -73.659863,
          45.547129
        ]
      }
    },
    {
      "type": "Feature",
      "properties": {
        "name": "Sauvé / Tolhurst (50353)",
        "direction": "inbound"
      },
      "geometry": {
        "type": "Point",
        "coordinates": [
          -73.66279,
          45.542853
        ]
      }
    },
    {
      "type": "Feature",
      "properties": {
        "name": "Sauvé / Meilleur (50341)",
        "direction": "inbound"
      },
      "geometry": {
        "type": "Point",
        "coordinates": [
          -73.664312,
          45.54045
        ]
      }
    },
    {
      "type": "Feature",
      "properties": {
        "name": "Sauvé / de l'Acadie (côté est) (50325)",
        "direction": "inbound"
      },
      "geometry": {
        "type": "Point",
        "coordinates": [
          -73.66575,
          45.535882
        ]
      }
    },
    {
      "type": "Feature",
      "properties": {
        "name": "Sauvé / Elzéar-Soucy (53681)",
        "direction": "inbound"
      },
      "geometry": {
        "type": "Point",
        "coordinates": [
          -73.666157,
          45.533919
        ]
      }
    },
    {
      "type": "Feature",
      "properties": {
        "name": "Côte-Vertu / Lebeau (55736)",
        "direction": "inbound"
      },
      "geometry": {
        "type": "Point",
        "coordinates": [
          -73.668709,
          45.529428
        ]
      }
    },
    {
      "type": "Feature",
      "properties": {
        "name": "Côte-Vertu / Grimard (55733)",
        "direction": "inbound"
      },
      "geometry": {
        "type": "Point",
        "coordinates": [
          -73.669829,
          45.527586
        ]
      }
    },
    {
      "type": "Feature",
      "properties": {
        "name": "Côte-Vertu / Muir (55718)",
        "direction": "inbound"
      },
      "geometry": {
        "type": "Point",
        "coordinates": [
          -73.672115,
          45.523922
        ]
      }
    },
    {
      "type": "Feature",
      "properties": {
        "name": "Côte-Vertu / Champigny (55707)",
        "direction": "inbound"
      },
      "geometry": {
        "type": "Point",
        "coordinates": [
          -73.674463,
          45.520746
        ]
      }
    },
    {
      "type": "Feature",
      "properties": {
        "name": "Côte-Vertu / Dutrisac (55689)",
        "direction": "inbound"
      },
      "geometry": {
        "type": "Point",
        "coordinates": [
          -73.677287,
          45.518557
        ]
      }
    },
    {
      "type": "Feature",
      "properties": {
        "name": "Côte-Vertu / Sainte-Croix (55661)",
        "direction": "inbound"
      },
      "geometry": {
        "type": "Point",
        "coordinates": [
          -73.679989,
          45.516434
        ]
      }
    },
    {
      "type": "Feature",
      "properties": {
        "name": "Station Côte-Vertu (Côte-Vertu / Décarie) (55641)",
        "direction": "inbound"
      },
      "geometry": {
        "type": "Point",
        "coordinates": [
          -73.683352,
          45.513931
        ]
      }
    },
    {
      "type": "Feature",
      "properties": {
        "name": "Côte-Vertu / Leduc (55594)",
        "direction": "inbound"
      },
      "geometry": {
        "type": "Point",
        "coordinates": [
          -73.687253,
          45.510803
        ]
      }
    },
    {
      "type": "Feature",
      "properties": {
        "name": "Côte-Vertu / Marlatt (55580)",
        "direction": "inbound"
      },
      "geometry": {
        "type": "Point",
        "coordinates": [
          -73.689982,
          45.508663
        ]
      }
    },
    {
      "type": "Feature",
      "properties": {
        "name": "Côte-Vertu / Alexis-Nihon (55554)",
        "direction": "inbound"
      },
      "geometry": {
        "type": "Point",
        "coordinates": [
          -73.692474,
          45.506659
        ]
      }
    },
    {
      "type": "Feature",
      "properties": {
        "name": "Côte-Vertu / Bourgoin (55802)",
        "direction": "inbound"
      },
      "geometry": {
        "type": "Point",
        "coordinates": [
          -73.695237,
          45.504495
        ]
      }
    },
    {
      "type": "Feature",
      "properties": {
        "name": "Côte-Vertu / Duguay (55517)",
        "direction": "inbound"
      },
      "geometry": {
        "type": "Point",
        "coordinates": [
          -73.697796,
          45.502479
        ]
      }
    },
    {
      "type": "Feature",
      "properties": {
        "name": "Côte-Vertu / Hocquart (55502)",
        "direction": "inbound"
      },
      "geometry": {
        "type": "Point",
        "coordinates": [
          -73.699664,
          45.500972
        ]
      }
    },
    {
      "type": "Feature",
      "properties": {
        "name": "Place Vertu entrée sud-est (Côte-Vertu/No 3131) (55801)",
        "direction": "inbound"
      },
      "geometry": {
        "type": "Point",
        "coordinates": [
          -73.70386,
          45.497618
        ]
      }
    },
    {
      "type": "Feature",
      "properties": {
        "name": "Côte-Vertu / Beaulac (55464)",
        "direction": "inbound"
      },
      "geometry": {
        "type": "Point",
        "coordinates": [
          -73.706181,
          45.495777
        ]
      }
    },
    {
      "type": "Feature",
      "properties": {
        "name": "Côte-Vertu / Bégin (55445)",
        "direction": "inbound"
      },
      "geometry": {
        "type": "Point",
        "coordinates": [
          -73.710284,
          45.492525
        ]
      }
    },
    {
      "type": "Feature",
      "properties": {
        "name": "Bégin / Thimens (55933)",
        "direction": "inbound"
      },
      "geometry": {
        "type": "Point",
        "coordinates": [
          -73.714721,
          45.4952
        ]
      }
    },
    {
      "type": "Feature",
      "properties": {
        "name": "Thimens / Pomba (55426)",
        "direction": "inbound"
      },
      "geometry": {
        "type": "Point",
        "coordinates": [
          -73.719321,
          45.494104
        ]
      }
    },
    {
      "type": "Feature",
      "properties": {
        "name": "Thimens / Poirier (55874)",
        "direction": "inbound"
      },
      "geometry": {
        "type": "Point",
        "coordinates": [
          -73.723716,
          45.494779
        ]
      }
    },
    {
      "type": "Feature",
      "properties": {
        "name": "Thimens / Steinberg (55875)",
        "direction": "inbound"
      },
      "geometry": {
        "type": "Point",
        "coordinates": [
          -73.726838,
          45.496589
        ]
      }
    },
    {
      "type": "Feature",
      "properties": {
        "name": "Thimens / Dobrin (55873)",
        "direction": "inbound"
      },
      "geometry": {
        "type": "Point",
        "coordinates": [
          -73.729406,
          45.498264
        ]
      }
    },
    {
      "type": "Feature",
      "properties": {
        "name": "Thimens / Bois-Franc (55394)",
        "direction": "inbound"
      },
      "geometry": {
        "type": "Point",
        "coordinates": [
          -73.733582,
          45.500934
        ]
      }
    },
    {
      "type": "Feature",
      "properties": {
        "name": "Centre de transport St-Laurent (Guénette / Cousens (55887)",
        "direction": "inbound"
      },
      "geometry": {
        "type": "Point",
        "coordinates": [
          -73.73376,
          45.503345
        ]
      }
    }
  ]
}
